[
{"cdsId":1100170000000,"ncesId":691051,"county":"Alameda","name":"Alameda County Office of Education","street":"313 West Winton Avenue","city":"Hayward","zip":"94544-1136","state":"CA","Website (Orig)":"www.acoe.org","DOC":0,"DOCType":"County Office of Education (COE)","latitude":37.658212,"longitude":-122.09713,"modified":"6/23/2015","studentCount":3921,"lepCount":1133,"iepCount":102,"frlCount":2355,"fetchCount":66,"twitter":"http://twitter.com/AlamedaCOE","facebook":"http://www.facebook.com/pages/Alameda-County-Office-of-Education/197753443586794","Verified":"Trust","Comment":"","website":"http://www.acoe.org/acoe/"},
{"cdsId":1316090000000,"ncesId":600002,"county":"Alameda","name":"California School for the Blind (State Special Schl)","street":"500 Walnut Avenue","city":"Fremont","zip":"94536-4365","state":"CA","Website (Orig)":"www.csb-cde.ca.gov","DOC":31,"DOCType":"State Special Schools","latitude":37.562576,"longitude":-121.96563,"modified":"7/29/2015","studentCount":72,"lepCount":7,"iepCount":77,"frlCount":69,"fetchCount":71,"twitter":"","facebook":"","Verified":"Yes","Comment":"","website":"http://www.csb-cde.ca.gov"},
{"cdsId":1316170000000,"ncesId":600003,"county":"Alameda","name":"California School for the Deaf-Fremont (State Special Schl)","street":"39350 Gallaudet Drive","city":"Fremont","zip":"94538-2308","state":"CA","Website (Orig)":"www.csdeagles.com","DOC":31,"DOCType":"State Special Schools","latitude":37.558956,"longitude":-121.96551,"modified":"7/29/2015","studentCount":404,"lepCount":0,"iepCount":413,"frlCount":401,"fetchCount":71,"twitter":"https://twitter.com/csdthat","facebook":"https://www.facebook.com/CSDTHAT?fref=ts","Verified":"Trust","Comment":"","website":"http://www.csdeagles.com"},
{"cdsId":1611190000000,"ncesId":601770,"county":"Alameda","name":"Alameda Unified","street":"2060 Challenger Dr","city":"Alameda","zip":"94501-1037","state":"CA","Website (Orig)":"www.alameda.k12.ca.us","DOC":54,"DOCType":"Unified School District","latitude":37.782147,"longitude":-122.27009,"modified":"6/26/2015","studentCount":10918,"lepCount":2120,"iepCount":1069,"frlCount":3554,"fetchCount":67,"twitter":"https://twitter.com/AUSDNews","facebook":"","Verified":"Manual","Comment":"","website":"http://www.alameda.k12.ca.us"},
{"cdsId":1611270000000,"ncesId":601860,"county":"Alameda","name":"Albany City Unified","street":"1051 Monroe Street","city":"Albany","zip":"94706-2213","state":"CA","Website (Orig)":"www.ausdk12.org","DOC":54,"DOCType":"Unified School District","latitude":37.884367,"longitude":-122.2987,"modified":"6/23/2015","studentCount":3837,"lepCount":780,"iepCount":379,"frlCount":785,"fetchCount":65,"twitter":"https://twitter.com/ausd4kids","facebook":"https://www.facebook.com/pages/Albany-Unified-School-District/213792788667358?ref=br_tf","Verified":"Trust","Comment":"","website":"http://www.ausdk12.org"},
{"cdsId":1611430000000,"ncesId":604740,"county":"Alameda","name":"Berkeley Unified","street":"2020 Bonar Street","city":"Berkeley","zip":"94702-1793","state":"CA","Website (Orig)":"www.berkeleyschools.net","DOC":54,"DOCType":"Unified School District","latitude":37.869454,"longitude":-122.28747,"modified":"6/23/2015","studentCount":10147,"lepCount":1272,"iepCount":1090,"frlCount":4152,"fetchCount":69,"twitter":"","facebook":"","Verified":"Yes","Comment":"","website":"http://www.berkeleyschools.net"},
{"cdsId":1611500000000,"ncesId":607800,"county":"Alameda","name":"Castro Valley Unified","street":"4400 Alma Avenue","city":"Castro Valley","zip":"94546-0146","state":"CA","Website (Orig)":"www.cv.k12.ca.us","DOC":54,"DOCType":"Unified School District","latitude":37.707693,"longitude":-122.07038,"modified":"6/23/2015","studentCount":9299,"lepCount":917,"iepCount":793,"frlCount":1945,"fetchCount":63,"twitter":"https://twitter.com/CastroValleyUSD","facebook":"","Verified":"Manual","Comment":"","website":"http://www.cv.k12.ca.us"},
{"cdsId":1611680000000,"ncesId":612630,"county":"Alameda","name":"Emery Unified","street":"1275 - 61st Street","city":"Emeryville","zip":"94608-3035","state":"CA","Website (Orig)":"www.emeryusd.k12.ca.us","DOC":54,"DOCType":"Unified School District","latitude":37.842955,"longitude":-122.28843,"modified":"7/30/2015","studentCount":725,"lepCount":107,"iepCount":59,"frlCount":424,"fetchCount":58,"twitter":"","facebook":"","Verified":"Yes","Comment":"","website":"https://emeryusd.k12.ca.us/"},
{"cdsId":1611760000000,"ncesId":614400,"county":"Alameda","name":"Fremont Unified","street":"4210 Technology Drive","city":"Fremont","zip":"94538-6337","state":"CA","Website (Orig)":"www.fremont.k12.ca.us","DOC":54,"DOCType":"Unified School District","latitude":37.5078,"longitude":-121.95443,"modified":"9/29/2015","studentCount":33757,"lepCount":6703,"iepCount":3211,"frlCount":5559,"fetchCount":73,"twitter":"https://twitter.com/USDFremont","facebook":"https://www.facebook.com/pages/Fremont-Usd/1450767218522362","Verified":"Trust","Comment":"","website":"http://www.fremont.k12.ca.us/site/default.aspx?PageID=1"},
{"cdsId":1611920000000,"ncesId":616740,"county":"Alameda","name":"Hayward Unified","street":"24411 Amador Street","city":"Hayward","zip":"94544-1301","state":"CA","Website (Orig)":"www.husd.k12.ca.us","DOC":54,"DOCType":"Unified School District","latitude":37.656838,"longitude":-122.09337,"modified":"8/27/2013","studentCount":22171,"lepCount":6886,"iepCount":2266,"frlCount":15242,"fetchCount":41,"twitter":"https://twitter.com/MadeinHayward","facebook":"","Verified":"Trust","Comment":"","website":"http://www.husd.k12.ca.us"},
{"cdsId":1612000000000,"ncesId":622110,"county":"Alameda","name":"Livermore Valley Joint Unified","street":"685 East Jack London Boulevard","city":"Livermore","zip":"94551-1899","state":"CA","Website (Orig)":"www.livermoreschools.com","DOC":54,"DOCType":"Unified School District","latitude":37.689031,"longitude":-121.79177,"modified":"6/23/2015","studentCount":13603,"lepCount":1945,"iepCount":1683,"frlCount":3006,"fetchCount":62,"twitter":"","facebook":"https://www.facebook.com/LivermoreSchools","Verified":"Trust","Comment":"","website":"http://www.livermoreschools.com"},
{"cdsId":1612180000000,"ncesId":626130,"county":"Alameda","name":"Mountain House Elementary","street":"3950 Mountain House Road","city":"Byron","zip":"94514-1920","state":"CA","Website (Orig)":"www.mtnhouse.k12.ca.us","DOC":52,"DOCType":"Elementary School District","latitude":37.787242,"longitude":-121.57729,"modified":"7/29/2015","studentCount":22,"lepCount":12,"iepCount":2,"frlCount":15,"fetchCount":74,"twitter":"","facebook":"","Verified":"Yes","Comment":"","website":"http://www.mtnhouse.k12.ca.us"},
{"cdsId":1612340000000,"ncesId":627060,"county":"Alameda","name":"Newark Unified","street":"5715 Musick Avenue","city":"Newark","zip":"94560-0385","state":"CA","Website (Orig)":"www.newarkunified.org","DOC":54,"DOCType":"Unified School District","latitude":37.542383,"longitude":-122.03158,"modified":"10/9/2015","studentCount":6281,"lepCount":1564,"iepCount":656,"frlCount":3403,"fetchCount":49,"twitter":"","facebook":"","Verified":"Yes","Comment":"","website":"http://www.newarkunified.org"},
{"cdsId":1612420000000,"ncesId":626910,"county":"Alameda","name":"New Haven Unified","street":"34200 Alvarado-Niles Road","city":"Union City","zip":"94587-4402","state":"CA","Website (Orig)":"www.nhusd.k12.ca.us","DOC":54,"DOCType":"Unified School District","latitude":37.588425,"longitude":-122.02531,"modified":"10/9/2015","studentCount":12582,"lepCount":3051,"iepCount":1237,"frlCount":5967,"fetchCount":74,"twitter":"https://twitter.com/signup","facebook":"http://www.facebook.com/pages/Union-City-CA/New-Haven-Unified-School-District/111020237217","Verified":"Trust","Comment":"","website":"http://www.nhusd.k12.ca.us"},
{"cdsId":1612590000000,"ncesId":628050,"county":"Alameda","name":"Oakland Unified","street":"1000 Broadway, Suite 680","city":"Oakland","zip":"94607-4099","state":"CA","Website (Orig)":"www.ousd.k12.ca.us","DOC":54,"DOCType":"Unified School District","latitude":37.801965,"longitude":-122.27236,"modified":"8/26/2015","studentCount":47028,"lepCount":14483,"iepCount":5058,"frlCount":35135,"fetchCount":72,"twitter":"https://twitter.com/OUSDNews","facebook":"https://www.facebook.com/ousdnews/","Verified":"Manual","Comment":"","website":"http://www.ousd.org/site/default.aspx?PageID=1"},
{"cdsId":1612750000000,"ncesId":630330,"county":"Alameda","name":"Piedmont City Unified","street":"760 Magnolia Avenue","city":"Piedmont","zip":"94611-4047","state":"CA","Website (Orig)":"www.piedmont.k12.ca.us","DOC":54,"DOCType":"Unified School District","latitude":37.823082,"longitude":-122.23371,"modified":"1/21/2016","studentCount":2639,"lepCount":57,"iepCount":348,"frlCount":0,"fetchCount":59,"twitter":"http://twitter.com/piedmontunified","facebook":"","Verified":"Trust","Comment":"","website":"http://www.piedmont.k12.ca.us"},
{"cdsId":1612910000000,"ncesId":634680,"county":"Alameda","name":"San Leandro Unified","street":"835 E. 14th Street, Suite 200","city":"San Leandro","zip":"94577-3767","state":"CA","Website (Orig)":"www.sanleandro.k12.ca.us","DOC":54,"DOCType":"Unified School District","latitude":37.728671,"longitude":-122.15932,"modified":"12/19/2015","studentCount":8639,"lepCount":2345,"iepCount":1167,"frlCount":5534,"fetchCount":72,"twitter":"https://twitter.com/SLUSD_News","facebook":"https://www.facebook.com/SLUSD/","Verified":"Trust","Comment":"","website":"http://www.sanleandro.k12.ca.us/site/default.aspx?PageID=1"},
{"cdsId":1613090000000,"ncesId":634710,"county":"Alameda","name":"San Lorenzo Unified","street":"15510 Usher Street","city":"San Lorenzo","zip":"94580-1641","state":"CA","Website (Orig)":"www.slzusd.org","DOC":54,"DOCType":"Unified School District","latitude":37.689222,"longitude":-122.12875,"modified":"6/23/2015","studentCount":12262,"lepCount":3440,"iepCount":1111,"frlCount":8308,"fetchCount":58,"twitter":"","facebook":"","Verified":"Yes","Comment":"","website":"http://www.slzusd.org"},
{"cdsId":1740050000000,"ncesId":600084,"county":"Alameda","name":"Tri-Valley ROP","street":"1040 Florence Road","city":"Livermore","zip":"94550-5543","state":"CA","Website (Orig)":"","DOC":98,"DOCType":"Regional Occupation Center/Program (ROC/P)","latitude":37.669154,"longitude":-121.77428,"modified":"1/30/2016","studentCount":"‡","lepCount":"–","iepCount":"–","frlCount":"‡","fetchCount":1,"twitter":"","facebook":"","Verified":"Manual","Comment":"","website":"http://www.tvrop.org/"},
{"cdsId":1740130000000,"ncesId":600085,"county":"Alameda","name":"Eden Area ROP","street":"26316 Hesperian Boulevard","city":"Hayward","zip":94545,"state":"CA","Website (Orig)":"","DOC":98,"DOCType":"Regional Occupation Center/Program (ROC/P)","latitude":37.634543,"longitude":-122.09874,"modified":"11/3/2015","studentCount":"‡","lepCount":"–","iepCount":"–","frlCount":"‡","fetchCount":74,"twitter":"https://twitter.com/EdenAreaROP","facebook":"https://www.facebook.com/EdenAreaROP","Verified":"Manual","Comment":"","website":"http://edenrop.org/site/default.aspx?PageID=1"},
{"cdsId":1740210000000,"ncesId":600086,"county":"Alameda","name":"Mission Valley ROC/P","street":"5019 Stevenson Blvd","city":"Fremont","zip":94538,"state":"CA","Website (Orig)":"www.mvrop.org","DOC":98,"DOCType":"Regional Occupation Center/Program (ROC/P)","latitude":37.527997,"longitude":-121.98347,"modified":"10/29/2015","studentCount":"‡","lepCount":"–","iepCount":"–","frlCount":"‡","fetchCount":70,"twitter":"","facebook":"","Verified":"Yes","Comment":"","website":"http://www.mvrop.org/site/default.aspx?PageID=1"},
{"cdsId":1740390000000,"ncesId":600088,"county":"Alameda","name":"East Bay Regional Occupational Agency (ROP)","street":"1025 Second Avenue","city":"Oakland","zip":94606,"state":"CA","Website (Orig)":"","DOC":98,"DOCType":"Regional Occupation Center/Program (ROC/P)","latitude":37.796352,"longitude":-122.25857,"modified":"7/2/2013","studentCount":"‡","lepCount":"–","iepCount":"–","frlCount":"‡","fetchCount":"#N/A","twitter":"","facebook":"","Verified":404,"Comment":"","website":"#N/A"},
{"cdsId":1750930000000,"ncesId":600019,"county":"Alameda","name":"Dublin Unified","street":"7471 Larkdale Avenue","city":"Dublin","zip":"94568-1500","state":"CA","Website (Orig)":"www.dublinusd.org","DOC":54,"DOCType":"Unified School District","latitude":37.716285,"longitude":-121.93066,"modified":"12/18/2015","studentCount":8270,"lepCount":582,"iepCount":590,"frlCount":712,"fetchCount":68,"twitter":"","facebook":"https://www.facebook.com/Dublin-Unified-School-District-240554436611/","Verified":"Manual","Comment":"","website":"http://www.dublin.k12.ca.us/site/default.aspx?PageID=1"},
{"cdsId":1751010000000,"ncesId":600020,"county":"Alameda","name":"Pleasanton Unified","street":"4665 Bernal Avenue","city":"Pleasanton","zip":"94566-7498","state":"CA","Website (Orig)":"www.pleasantonusd.net","DOC":54,"DOCType":"Unified School District","latitude":37.657265,"longitude":-121.88245,"modified":"7/9/2015","studentCount":14724,"lepCount":989,"iepCount":1463,"frlCount":779,"fetchCount":61,"twitter":"https://twitter.com/dusd4kids","facebook":"https://www.facebook.com/pages/Pleasanton-Unified-School-District/1721536888071355","Verified":"Manual","Comment":"","website":"http://www.pleasantonusd.net"},
{"cdsId":1751190000000,"ncesId":600021,"county":"Alameda","name":"Sunol Glen Unified","street":"11601 Main Street","city":"Sunol","zip":"94586-9519","state":"CA","Website (Orig)":"www.sunol.k12.ca.us","DOC":54,"DOCType":"Unified School District","latitude":37.592963,"longitude":-121.88482,"modified":"7/2/2013","studentCount":269,"lepCount":25,"iepCount":12,"frlCount":18,"fetchCount":1,"twitter":"","facebook":"https://www.facebook.com/SunolGlenUSD","Verified":"Manual","Comment":"","website":"http://www.sunol.k12.ca.us"},
{"cdsId":2100250000000,"ncesId":691058,"county":"Alpine","name":"Alpine County Office of Education","street":"43 Hawkside Drive","city":"Markleeville","zip":"96120-9522","state":"CA","Website (Orig)":"www.alpinecoe.k12.ca.us","DOC":0,"DOCType":"County Office of Education (COE)","latitude":38.766195,"longitude":-119.80692,"modified":"6/23/2015","studentCount":6,"lepCount":0,"iepCount":0,"frlCount":3,"fetchCount":51,"twitter":"","facebook":"","Verified":"Yes","Comment":"","website":"http://alpinecoe.k12.ca.us/"},
{"cdsId":2613330000000,"ncesId":602070,"county":"Alpine","name":"Alpine County Unified","street":"43 Hawkside Drive","city":"Markleeville","zip":"96120-9522","state":"CA","Website (Orig)":"www.alpinecoe.k12.ca.us","DOC":54,"DOCType":"Unified School District","latitude":38.766195,"longitude":-119.80692,"modified":"6/23/2015","studentCount":84,"lepCount":0,"iepCount":31,"frlCount":50,"fetchCount":51,"twitter":"","facebook":"","Verified":"Yes","Comment":"","website":"http://alpinecoe.k12.ca.us/"},
{"cdsId":3100330000000,"ncesId":691001,"county":"Amador","name":"Amador County Office of Education","street":"217 Rex Avenue","city":"Jackson","zip":"95642-2020","state":"CA","Website (Orig)":"www.amadorcoe.org/","DOC":0,"DOCType":"County Office of Education (COE)","latitude":38.352665,"longitude":-120.77703,"modified":"6/23/2015","studentCount":451,"lepCount":10,"iepCount":217,"frlCount":277,"fetchCount":62,"twitter":"","facebook":"http://www.facebook.com/amadorcoe","Verified":"Trust","Comment":"","website":"http://www.amadorcoe.org/"},
{"cdsId":3739810000000,"ncesId":602450,"county":"Amador","name":"Amador County Unified","street":"217 Rex Avenue","city":"Jackson","zip":"95642-2020","state":"CA","Website (Orig)":"www.amadorcoe.org","DOC":54,"DOCType":"Unified School District","latitude":38.352665,"longitude":-120.77703,"modified":"3/7/2016","studentCount":3708,"lepCount":82,"iepCount":373,"frlCount":1522,"fetchCount":"#N/A","twitter":"","facebook":"http://www.facebook.com/amadorcoe","Verified":"Trust","Comment":"","website":"http://www.amadorcoe.org"},
{"cdsId":3748560000000,"ncesId":600089,"county":"Amador","name":"Amador County ROP","street":"217 Rex Avenue","city":"Jackson","zip":95642,"state":"CA","Website (Orig)":"","DOC":98,"DOCType":"Regional Occupation Center/Program (ROC/P)","latitude":38.353148,"longitude":-120.77869,"modified":"1/30/2016","studentCount":"‡","lepCount":"–","iepCount":"–","frlCount":"‡","fetchCount":"#N/A","twitter":"","facebook":"","Verified":404,"Comment":"","website":"#N/A"},
{"cdsId":4100410000000,"ncesId":691002,"county":"Butte","name":"Butte County Office of Education","street":"1859 Bird Street","city":"Oroville","zip":"95965-4854","state":"CA","Website (Orig)":"www.bcoe.org","DOC":0,"DOCType":"County Office of Education (COE)","latitude":39.512653,"longitude":-121.55663,"modified":"6/23/2015","studentCount":1129,"lepCount":32,"iepCount":296,"frlCount":692,"fetchCount":70,"twitter":"http://www.twitter.com/mklucero17","facebook":"https://www.facebook.com/BCOEartsed","Verified":"Trust","Comment":"","website":"http://www.bcoe.org"},
{"cdsId":4613820000000,"ncesId":603780,"county":"Butte","name":"Bangor Union Elementary","street":"7549 Oro-Bangor Highway","city":"Bangor","zip":"95914-0340","state":"CA","Website (Orig)":"www.bcoe.org/home/districts/bangor","DOC":52,"DOCType":"Elementary School District","latitude":39.390904,"longitude":-121.4074,"modified":"6/23/2015","studentCount":113,"lepCount":4,"iepCount":13,"frlCount":93,"fetchCount":"#N/A","twitter":"","facebook":"","Verified":404,"Comment":"","website":"http://www.bcoe.org/home/districts/bangor"},
{"cdsId":4614080000000,"ncesId":605040,"county":"Butte","name":"Biggs Unified","street":"300 B Street","city":"Biggs","zip":"95917-9732","state":"CA","Website (Orig)":"www.biggs.org","DOC":54,"DOCType":"Unified School District","latitude":39.414988,"longitude":-121.7038,"modified":"6/23/2015","studentCount":524,"lepCount":75,"iepCount":61,"frlCount":377,"fetchCount":46,"twitter":"","facebook":"","Verified":"Yes","Comment":"","website":"http://www.biggs.org"},
{"cdsId":4614240000000,"ncesId":608370,"county":"Butte","name":"Chico Unified","street":"1163 East Seventh Street","city":"Chico","zip":"95928-5903","state":"CA","Website (Orig)":"www.chicousd.org","DOC":54,"DOCType":"Unified School District","latitude":39.73363,"longitude":-121.82581,"modified":"8/4/2015","studentCount":13815,"lepCount":1212,"iepCount":1617,"frlCount":6620,"fetchCount":72,"twitter":"https://twitter.com/CUSDPD","facebook":"http://www.facebook.com/pages/Chico-USD/101962589844142","Verified":"Trust","Comment":"","website":"http://www.chicousd.org"},
{"cdsId":4614320000000,"ncesId":611730,"county":"Butte","name":"Durham Unified","street":"9420 Putney Drive","city":"Durham","zip":"95938-9426","state":"CA","Website (Orig)":"www.durhamunified.org","DOC":54,"DOCType":"Unified School District","latitude":39.646044,"longitude":-121.80292,"modified":"6/23/2015","studentCount":974,"lepCount":101,"iepCount":79,"frlCount":380,"fetchCount":44,"twitter":"","facebook":"","Verified":"Yes","Comment":"","website":"http://www.durhamunified.org"},
{"cdsId":4614400000000,"ncesId":613710,"county":"Butte","name":"Feather Falls Union Elementary","street":"2651 Lumpkin Road","city":"Oroville","zip":"95966-8887","state":"CA","Website (Orig)":"www.bcoe.org/home/districts/featherfalls","DOC":52,"DOCType":"Elementary School District","latitude":39.593033,"longitude":-121.2521,"modified":"8/19/2014","studentCount":41,"lepCount":0,"iepCount":5,"frlCount":28,"fetchCount":"#N/A","twitter":"","facebook":"","Verified":"Skip","Comment":"","website":"http://www.bcoe.org/home/districts/featherfalls"},
{"cdsId":4614570000000,"ncesId":615480,"county":"Butte","name":"Golden Feather Union Elementary","street":"11679 Nelson Bar Road","city":"Oroville","zip":"95965-8033","state":"CA","Website (Orig)":"www.gfusd.org","DOC":52,"DOCType":"Elementary School District","latitude":39.730537,"longitude":-121.52823,"modified":"6/23/2015","studentCount":159,"lepCount":0,"iepCount":25,"frlCount":75,"fetchCount":70,"twitter":"","facebook":"","Verified":"Yes","Comment":"","website":"http://www.gfusd.org"},
{"cdsId":4614990000000,"ncesId":623700,"county":"Butte","name":"Manzanita Elementary","street":"627 East Evans-Reimer Road","city":"Gridley","zip":"95948-9736","state":"CA","Website (Orig)":"www.manzanitaelementaryschool.com","DOC":52,"DOCType":"Elementary School District","latitude":39.334408,"longitude":-121.65863,"modified":"8/27/2015","studentCount":302,"lepCount":36,"iepCount":14,"frlCount":141,"fetchCount":74,"twitter":"https://twitter.com/mesdmustangs","facebook":"https://www.facebook.com/groups/242416765779330/","Verified":"Trust","Comment":"","website":"http://www.manzanitaelementaryschool.com"},
{"cdsId":4615070000000,"ncesId":629100,"county":"Butte","name":"Oroville City Elementary","street":"2795 Yard Street","city":"Oroville","zip":"95966-5113","state":"CA","Website (Orig)":"www.ocesd.org","DOC":52,"DOCType":"Elementary School District","latitude":39.513224,"longitude":-121.54591,"modified":"6/23/2015","studentCount":2587,"lepCount":245,"iepCount":491,"frlCount":1984,"fetchCount":74,"twitter":"","facebook":"https://www.facebook.com/pages/Stanford-Avenue-Elementary/1445749922307306","Verified":"Trust","Comment":"","website":"http://www.ocesd.org"},
{"cdsId":4615150000000,"ncesId":629130,"county":"Butte","name":"Oroville Union High","street":"2211 Washington Avenue","city":"Oroville","zip":"95966-5440","state":"CA","Website (Orig)":"www.ouhsd.org","DOC":56,"DOCType":"High School District","latitude":39.509368,"longitude":-121.54714,"modified":"6/23/2015","studentCount":2354,"lepCount":152,"iepCount":253,"frlCount":1729,"fetchCount":66,"twitter":"","facebook":"","Verified":"Yes","Comment":"","website":"http://www.ouhsd.org"},
{"cdsId":4615230000000,"ncesId":629540,"county":"Butte","name":"Palermo Union Elementary","street":"7390 Bulldog Way","city":"Palermo","zip":"95968-9700","state":"CA","Website (Orig)":"www.palermoschools.org","DOC":52,"DOCType":"Elementary School District","latitude":39.435403,"longitude":-121.54617,"modified":"6/23/2015","studentCount":1301,"lepCount":189,"iepCount":131,"frlCount":1044,"fetchCount":69,"twitter":"","facebook":"","Verified":"Yes","Comment":"","website":"http://www.palermoschools.org"},
{"cdsId":4615310000000,"ncesId":629820,"county":"Butte","name":"Paradise Unified","street":"6696 Clark Rd","city":"Paradise","zip":"95969-2834","state":"CA","Website (Orig)":"www.pusdk12.org","DOC":54,"DOCType":"Unified School District","latitude":39.778742,"longitude":-121.58995,"modified":"7/1/2015","studentCount":4260,"lepCount":59,"iepCount":579,"frlCount":2597,"fetchCount":54,"twitter":"","facebook":"","Verified":"Yes","Comment":"","website":"http://www.pusdk12.org"},
{"cdsId":4615490000000,"ncesId":639180,"county":"Butte","name":"Thermalito Union","street":"400 Grand Avenue","city":"Oroville","zip":"95965-4007","state":"CA","Website (Orig)":"www.thermalito.org","DOC":52,"DOCType":"Elementary School District","latitude":39.519172,"longitude":-121.57431,"modified":"6/23/2015","studentCount":1359,"lepCount":268,"iepCount":125,"frlCount":1199,"fetchCount":29,"twitter":"","facebook":"","Verified":"Yes","Comment":"","website":"http://www.thermalito.org"},
{"cdsId":4733790000000,"ncesId":630520,"county":"Butte","name":"Pioneer Union Elementary","street":"286 Rockerfeller Road","city":"Berry Creek","zip":"95916-9724","state":"CA","Website (Orig)":"http://pioneer.bcoe.butte.k12.ca.us","DOC":52,"DOCType":"Elementary School District","latitude":39.625505,"longitude":-121.37292,"modified":"12/18/2015","studentCount":"‡","lepCount":0,"iepCount":7,"frlCount":"‡","fetchCount":66,"twitter":"","facebook":"","Verified":"Manual","Comment":"","website":"http://www.puesd.net/site/default.aspx?PageID=1"},
{"cdsId":4746820000000,"ncesId":600090,"county":"Butte","name":"Butte County ROP","street":"2491 Carmichael Drive, Suite 500","city":"Chico","zip":95928,"state":"CA","Website (Orig)":"","DOC":98,"DOCType":"Regional Occupation Center/Program (ROC/P)","latitude":39.715532,"longitude":-121.80438,"modified":"1/30/2016","studentCount":"‡","lepCount":"–","iepCount":"–","frlCount":"‡","fetchCount":63,"twitter":"","facebook":"","Verified":"Yes","Comment":"","website":"https://rop.bcoe.org/"},
{"cdsId":4755070000000,"ncesId":600051,"county":"Butte","name":"Gridley Unified","street":"429 Magnolia Street","city":"Gridley","zip":"95948-2533","state":"CA","Website (Orig)":"www.gusd.org","DOC":54,"DOCType":"Unified School District","latitude":39.363133,"longitude":-121.6911,"modified":"6/23/2015","studentCount":2065,"lepCount":418,"iepCount":202,"frlCount":1510,"fetchCount":73,"twitter":"","facebook":"","Verified":"Yes","Comment":"","website":"http://www.gusd.org/site/default.aspx?PageID=1"},
{"cdsId":5100580000000,"ncesId":691003,"county":"Calaveras","name":"Calaveras County Office of Education","street":"185 South Main Street","city":"Angels Camp","zip":"95221-0760","state":"CA","Website (Orig)":"www.ccoe.k12.ca.us","DOC":0,"DOCType":"County Office of Education (COE)","latitude":38.078894,"longitude":-120.55324,"modified":"7/2/2013","studentCount":571,"lepCount":1,"iepCount":162,"frlCount":325,"fetchCount":72,"twitter":"https://twitter.com/CCOEJobs","facebook":"https://www.facebook.com/pages/Mountain-Oaks-School/184153094932314","Verified":"Trust","Comment":"CCOEJobs?","website":"http://www.ccoe.k12.ca.us/site/default.aspx?PageID=1"},
{"cdsId":5615560000000,"ncesId":605940,"county":"Calaveras","name":"Bret Harte Union High","street":"323 South Main Street","city":"Angels Camp","zip":95221,"state":"CA","Website (Orig)":"http://bhuhsd-ca.schoolloop.com/","DOC":56,"DOCType":"High School District","latitude":38.078506,"longitude":-120.55249,"modified":"6/23/2015","studentCount":724,"lepCount":9,"iepCount":93,"frlCount":279,"fetchCount":59,"twitter":"","facebook":"http://www.facebook.com/pages/Bret-Harte-Union-High-School-District/146354908780952","Verified":"Trust","Comment":"","website":"http://bhuhsd-ca.schoolloop.com/"},
{"cdsId":5615640000000,"ncesId":606870,"county":"Calaveras","name":"Calaveras Unified","street":"3304 B Highway 12","city":"San Andreas","zip":"95249-0788","state":"CA","Website (Orig)":"www.calaveras.k12.ca.us","DOC":54,"DOCType":"Unified School District","latitude":38.2076,"longitude":-120.767,"modified":"7/2/2013","studentCount":3134,"lepCount":42,"iepCount":411,"frlCount":1585,"fetchCount":68,"twitter":"","facebook":"","Verified":"Yes","Comment":"","website":"http://www.calaveras.k12.ca.us"},
{"cdsId":5615720000000,"ncesId":623970,"county":"Calaveras","name":"Mark Twain Union Elementary","street":"981 Tuolumne Avenue","city":"Angels Camp","zip":"95222-1359","state":"CA","Website (Orig)":"www.mtwain.k12.ca.us","DOC":52,"DOCType":"Elementary School District","latitude":38.074556,"longitude":-120.5543,"modified":"6/23/2015","studentCount":823,"lepCount":51,"iepCount":108,"frlCount":470,"fetchCount":72,"twitter":"","facebook":"","Verified":"Yes","Comment":"","website":"http://www.mtwain.k12.ca.us/site/default.aspx?PageID=1"},
{"cdsId":5615800000000,"ncesId":640680,"county":"Calaveras","name":"Vallecito Union","street":"4545 B Moran Road","city":"Avery","zip":95224,"state":"CA","Website (Orig)":"http://vallecito-ca.schoolloop.com","DOC":52,"DOCType":"Elementary School District","latitude":38.201889,"longitude":-120.36548,"modified":"10/10/2015","studentCount":581,"lepCount":30,"iepCount":79,"frlCount":217,"fetchCount":65,"twitter":"","facebook":"","Verified":"Yes","Comment":"","website":"http://vallecito-ca.schoolloop.com"},
{"cdsId":6100660000000,"ncesId":691004,"county":"Colusa","name":"Colusa County Office of Education","street":"345 5th Street","city":"Colusa","zip":"95932-2445","state":"CA","Website (Orig)":"www.ccoe.net","DOC":0,"DOCType":"County Office of Education (COE)","latitude":39.212442,"longitude":-122.0083,"modified":"6/25/2015","studentCount":"‡","lepCount":5,"iepCount":10,"frlCount":"‡","fetchCount":44,"twitter":"https://twitter.com/ColusaCOE","facebook":"https://www.facebook.com/colusacoe","Verified":"Trust","Comment":"","website":"http://www.ccoe.net"},
{"cdsId":6615980000000,"ncesId":609570,"county":"Colusa","name":"Colusa Unified","street":"745 10th Street","city":"Colusa","zip":"95932-2220","state":"CA","Website (Orig)":"www.colusa.k12.ca.us","DOC":54,"DOCType":"Unified School District","latitude":39.210697,"longitude":-122.01659,"modified":"10/10/2015","studentCount":1450,"lepCount":444,"iepCount":0,"frlCount":942,"fetchCount":63,"twitter":"","facebook":"","Verified":"Yes","Comment":"","website":"http://www.colusa.k12.ca.us"},
{"cdsId":6616060000000,"ncesId":624150,"county":"Colusa","name":"Maxwell Unified","street":"515 Oak Street","city":"Maxwell","zip":"95955-0788","state":"CA","Website (Orig)":"www.maxwell.k12.ca.us","DOC":54,"DOCType":"Unified School District","latitude":39.2762,"longitude":-122.20354,"modified":"10/9/2015","studentCount":333,"lepCount":87,"iepCount":0,"frlCount":219,"fetchCount":48,"twitter":"","facebook":"","Verified":"Yes","Comment":"","website":"http://www.maxwell.k12.ca.us"},
{"cdsId":6616140000000,"ncesId":630360,"county":"Colusa","name":"Pierce Joint Unified","street":"540 A Sixth Street","city":"Arbuckle","zip":95912,"state":"CA","Website (Orig)":"www.pierce.k12.ca.us","DOC":54,"DOCType":"Unified School District","latitude":39.016,"longitude":-122.0577,"modified":"3/24/2015","studentCount":1393,"lepCount":454,"iepCount":0,"frlCount":973,"fetchCount":30,"twitter":"","facebook":"","Verified":"Yes","Comment":"","website":"http://www.pierce.k12.ca.us"},
{"cdsId":6616220000000,"ncesId":642540,"county":"Colusa","name":"Williams Unified","street":"260 11th Street","city":"Williams","zip":"95987-0007","state":"CA","Website (Orig)":"www.williamsusd.net","DOC":54,"DOCType":"Unified School District","latitude":39.15503,"longitude":-122.15658,"modified":"7/10/2014","studentCount":1328,"lepCount":683,"iepCount":0,"frlCount":1013,"fetchCount":61,"twitter":"","facebook":"","Verified":"Yes","Comment":"","website":"http://www.williamsusd.net"},
{"cdsId":7100740000000,"ncesId":691005,"county":"Contra Costa","name":"Contra Costa County Office of Education","street":"77 Santa Barbara Road","city":"Pleasant Hill","zip":"94523-4201","state":"CA","Website (Orig)":"www.cocoschools.org","DOC":0,"DOCType":"County Office of Education (COE)","latitude":37.935382,"longitude":-122.06991,"modified":"6/23/2015","studentCount":3511,"lepCount":340,"iepCount":578,"frlCount":1141,"fetchCount":73,"twitter":"https://twitter.com/CoCoSchools","facebook":"","Verified":"Manual","Comment":"","website":"http://www.cccoe.k12.ca.us/"},
{"cdsId":7616300000000,"ncesId":601650,"county":"Contra Costa","name":"Acalanes Union High","street":"1212 Pleasant Hill Road","city":"Lafayette","zip":"94549-2623","state":"CA","Website (Orig)":"www.acalanes.k12.ca.us","DOC":56,"DOCType":"High School District","latitude":37.905816,"longitude":-122.0998,"modified":"6/23/2015","studentCount":5314,"lepCount":113,"iepCount":566,"frlCount":264,"fetchCount":60,"twitter":"http://twitter.com/LasLomasHS","facebook":"","Verified":"Trust","Comment":"","website":"http://www.acalanes.k12.ca.us/site/default.aspx?PageID=1"},
{"cdsId":7616480000000,"ncesId":602850,"county":"Contra Costa","name":"Antioch Unified","street":"510 G Street","city":"Antioch","zip":"94509-1259","state":"CA","Website (Orig)":"www.antioch.k12.ca.us","DOC":54,"DOCType":"Unified School District","latitude":38.014398,"longitude":-121.81376,"modified":"12/4/2015","studentCount":18497,"lepCount":3247,"iepCount":2330,"frlCount":11376,"fetchCount":63,"twitter":"","facebook":"https://www.facebook.com/ausd.k12/","Verified":"Trust","Comment":"","website":"http://www.antioch.k12.ca.us"},
{"cdsId":7616550000000,"ncesId":605910,"county":"Contra Costa","name":"Brentwood Union Elementary","street":"255 Guthrie Lane","city":"Brentwood","zip":"94513-1610","state":"CA","Website (Orig)":"www.brentwood.k12.ca.us","DOC":52,"DOCType":"Elementary School District","latitude":37.922123,"longitude":-121.68269,"modified":"6/23/2015","studentCount":8462,"lepCount":1115,"iepCount":1147,"frlCount":2283,"fetchCount":56,"twitter":"https://twitter.com/deatonbusd","facebook":"https://www.facebook.com/brentwoodunionschooldistrict","Verified":"Trust","Comment":"","website":"http://www.brentwood.k12.ca.us"},
{"cdsId":7616630000000,"ncesId":606750,"county":"Contra Costa","name":"Byron Union Elementary","street":"14301 Byron Highway","city":"Byron","zip":"94514-2515","state":"CA","Website (Orig)":"www.byronunionschooldistrict.us","DOC":52,"DOCType":"Elementary School District","latitude":37.878893,"longitude":-121.64149,"modified":"6/23/2015","studentCount":1617,"lepCount":104,"iepCount":163,"frlCount":427,"fetchCount":68,"twitter":"","facebook":"","Verified":"Yes","Comment":"","website":"http://www.byronunionschooldistrict.us"},
{"cdsId":7616710000000,"ncesId":607350,"county":"Contra Costa","name":"Canyon Elementary","street":"187 Pinehurst Road PO Box 187","city":"Canyon","zip":"94516-0187","state":"CA","Website (Orig)":"www.canyon.k12.ca.us","DOC":52,"DOCType":"Elementary School District","latitude":37.830425,"longitude":-122.16623,"modified":"8/28/2013","studentCount":72,"lepCount":0,"iepCount":0,"frlCount":7,"fetchCount":53,"twitter":"","facebook":"","Verified":"Yes","Comment":"","website":"http://canyon.k12.ca.us/"},
{"cdsId":7616970000000,"ncesId":618990,"county":"Contra Costa","name":"John Swett Unified","street":"400 Parker Avenue","city":"Rodeo","zip":"94572-1400","state":"CA","Website (Orig)":"www.jsusd.org","DOC":54,"DOCType":"Unified School District","latitude":38.032612,"longitude":-122.26702,"modified":"6/23/2015","studentCount":1677,"lepCount":240,"iepCount":230,"frlCount":1103,"fetchCount":1,"twitter":"","facebook":"","Verified":"Yes","Comment":"","website":"http://www.jsusd.org"},
{"cdsId":7617050000000,"ncesId":620040,"county":"Contra Costa","name":"Knightsen Elementary","street":"1923 Delta Road","city":"Knightsen","zip":"94548-0265","state":"CA","Website (Orig)":"www.knightsen.k12.ca.us","DOC":52,"DOCType":"Elementary School District","latitude":37.968769,"longitude":-121.66169,"modified":"6/23/2015","studentCount":481,"lepCount":77,"iepCount":91,"frlCount":216,"fetchCount":60,"twitter":"","facebook":"","Verified":"Yes","Comment":"","website":"http://www.knightsen.k12.ca.us"},
{"cdsId":7617130000000,"ncesId":620310,"county":"Contra Costa","name":"Lafayette Elementary","street":"3477 School Street","city":"Lafayette","zip":"94549-1029","state":"CA","Website (Orig)":"www.lafsd.k12.ca.us","DOC":52,"DOCType":"Elementary School District","latitude":37.887517,"longitude":-122.11411,"modified":"11/7/2013","studentCount":3467,"lepCount":92,"iepCount":380,"frlCount":99,"fetchCount":60,"twitter":"","facebook":"","Verified":"Yes","Comment":"","website":"http://www.lafsd.k12.ca.us"},
{"cdsId":7617210000000,"ncesId":621600,"county":"Contra Costa","name":"Liberty Union High","street":"20 Oak Street","city":"Brentwood","zip":"94513-1379","state":"CA","Website (Orig)":"www.libertyuhsd.k12.ca.us","DOC":56,"DOCType":"High School District","latitude":37.93495,"longitude":-121.6887,"modified":"6/23/2015","studentCount":7902,"lepCount":522,"iepCount":1017,"frlCount":2220,"fetchCount":67,"twitter":"","facebook":"","Verified":"Yes","Comment":"","website":"http://libertyunion.schoolwires.net/site/default.aspx?PageID=1"},
{"cdsId":7617390000000,"ncesId":624030,"county":"Contra Costa","name":"Martinez Unified","street":"921 Susana Street","city":"Martinez","zip":"94553-1848","state":"CA","Website (Orig)":"www.martinez.k12.ca.us","DOC":54,"DOCType":"Unified School District","latitude":38.014885,"longitude":-122.1318,"modified":"6/23/2015","studentCount":4132,"lepCount":364,"iepCount":423,"frlCount":988,"fetchCount":35,"twitter":"https://twitter.com/MartinezUnified","facebook":"https://www.facebook.com/Martinez-Unified-School-District-113277902038912/","Verified":"Manual","Comment":"","website":"http://www.martinezusd.net/"},
{"cdsId":7617470000000,"ncesId":625740,"county":"Contra Costa","name":"Moraga Elementary","street":"1540 School Street","city":"Moraga","zip":"94556-0158","state":"CA","Website (Orig)":"http://district.moraga.k12.ca.us","DOC":52,"DOCType":"Elementary School District","latitude":37.83465,"longitude":-122.13109,"modified":"6/23/2015","studentCount":1845,"lepCount":35,"iepCount":177,"frlCount":20,"fetchCount":67,"twitter":"https://twitter.com/BKBurns10","facebook":"","Verified":"Trust","Comment":"","website":"http://district.moraga.k12.ca.us"},
{"cdsId":7617540000000,"ncesId":626370,"county":"Contra Costa","name":"Mt. Diablo Unified","street":"1936 Carlotta Drive","city":"Concord","zip":"94519-1397","state":"CA","Website (Orig)":"www.mdusd.org","DOC":54,"DOCType":"Unified School District","latitude":37.987477,"longitude":-122.00607,"modified":"6/23/2015","studentCount":31756,"lepCount":7385,"iepCount":3654,"frlCount":14487,"fetchCount":40,"twitter":"https://twitter.com/MtDiabloUSD","facebook":"https://www.facebook.com/MDUSDnews","Verified":"Trust","Comment":"","website":"http://www.mdusd.org"},
{"cdsId":7617620000000,"ncesId":628080,"county":"Contra Costa","name":"Oakley Union Elementary","street":"91 Mercedes Lane","city":"Oakley","zip":"94561-4617","state":"CA","Website (Orig)":"www.ouesd.k12.ca.us","DOC":52,"DOCType":"Elementary School District","latitude":37.981486,"longitude":-121.71628,"modified":"8/4/2015","studentCount":4866,"lepCount":754,"iepCount":771,"frlCount":2341,"fetchCount":63,"twitter":"","facebook":"","Verified":"Yes","Comment":"","website":"http://www.ouesd.k12.ca.us"},
{"cdsId":7617700000000,"ncesId":628860,"county":"Contra Costa","name":"Orinda Union Elementary","street":"8 Altarinda Road","city":"Orinda","zip":"94563-2603","state":"CA","Website (Orig)":"www.orindaschools.org","DOC":52,"DOCType":"Elementary School District","latitude":37.882694,"longitude":-122.18306,"modified":"8/7/2014","studentCount":2482,"lepCount":23,"iepCount":226,"frlCount":3,"fetchCount":55,"twitter":"","facebook":"","Verified":"Yes","Comment":"","website":"http://www.orindaschools.org"},
{"cdsId":7617880000000,"ncesId":630600,"county":"Contra Costa","name":"Pittsburg Unified","street":"2000 Railroad Avenue","city":"Pittsburg","zip":"94565-3830","state":"CA","Website (Orig)":"www.pittsburg.k12.ca.us","DOC":54,"DOCType":"Unified School District","latitude":38.020229,"longitude":-121.8882,"modified":"6/23/2015","studentCount":10741,"lepCount":3572,"iepCount":1052,"frlCount":9069,"fetchCount":70,"twitter":"https://twitter.com/PittsburgUSD","facebook":"https://www.facebook.com/pages/Pittsburg-Adult-Education-Center/118147904923829","Verified":"Trust","Comment":"","website":"http://www.pittsburg.k12.ca.us/site/default.aspx?PageID=1"},
{"cdsId":7617960000000,"ncesId":632550,"county":"Contra Costa","name":"West Contra Costa Unified","street":"1108 Bissell Avenue","city":"Richmond","zip":"94801-3135","state":"CA","Website (Orig)":"www.wccusd.net","DOC":54,"DOCType":"Unified School District","latitude":37.934063,"longitude":-122.35848,"modified":"6/23/2015","studentCount":30615,"lepCount":10672,"iepCount":4017,"frlCount":21519,"fetchCount":68,"twitter":"https://twitter.com/WCCUSD","facebook":"https://www.facebook.com/WestContraCostaSchools","Verified":"Trust","Comment":"","website":"http://www.wccusd.net/site/default.aspx?PageID=1"},
{"cdsId":7618040000000,"ncesId":635130,"county":"Contra Costa","name":"San Ramon Valley Unified","street":"699 Old Orchard Drive","city":"Danville","zip":"94526-4331","state":"CA","Website (Orig)":"www.srvusd.net","DOC":54,"DOCType":"Unified School District","latitude":37.812241,"longitude":-121.97705,"modified":"6/23/2015","studentCount":31383,"lepCount":1690,"iepCount":2349,"frlCount":1307,"fetchCount":48,"twitter":"https://twitter.com/SRVUSD1","facebook":"http://www.facebook.com/srvusd","Verified":"Trust","Comment":"","website":"http://www.srvusd.net"},
{"cdsId":7618120000000,"ncesId":641250,"county":"Contra Costa","name":"Walnut Creek Elementary","street":"960 Ygnacio Valley Road","city":"Walnut Creek","zip":"94596-3826","state":"CA","Website (Orig)":"www.walnutcreeksd.org","DOC":52,"DOCType":"Elementary School District","latitude":37.90801,"longitude":-122.05564,"modified":"6/23/2015","studentCount":3554,"lepCount":368,"iepCount":404,"frlCount":373,"fetchCount":72,"twitter":"","facebook":"","Verified":"Yes","Comment":"","website":"http://www.walnutcreeksd.org/site/default.aspx?PageID=1"},
{"cdsId":7743440000000,"ncesId":600092,"county":"Contra Costa","name":"Contra Costa County ROP","street":"77 Santa Barbara Road","city":"Pleasant Hill","zip":94523,"state":"CA","Website (Orig)":"","DOC":98,"DOCType":"Regional Occupation Center/Program (ROC/P)","latitude":37.935012,"longitude":-122.06968,"modified":"1/29/2016","studentCount":"‡","lepCount":"–","iepCount":"–","frlCount":"‡","fetchCount":"#N/A","twitter":"https://twitter.com/CoCoSchools","facebook":"","Verified":"Manual","Comment":"","website":"http://www.cccoe.k12.ca.us/stsvcs/rop.html"},
{"cdsId":8100820000000,"ncesId":691063,"county":"Del Norte","name":"Del Norte County Office of Education","street":"301 West Washington Boulevard","city":"Crescent City","zip":"95531-8340","state":"CA","Website (Orig)":"www.delnorte.k12.ca.us","DOC":0,"DOCType":"County Office of Education (COE)","latitude":41.772734,"longitude":-124.20591,"modified":"8/27/2015","studentCount":"‡","lepCount":12,"iepCount":0,"frlCount":"‡","fetchCount":71,"twitter":"","facebook":"https://www.facebook.com/pages/Del-Norte-County-Unified-School-District/148445035186670","Verified":"Verified","Comment":"","website":"http://www.delnorte.k12.ca.us"},
{"cdsId":8618200000000,"ncesId":610770,"county":"Del Norte","name":"Del Norte County Unified","street":"301 West Washington Boulevard","city":"Crescent City","zip":"95531-8340","state":"CA","Website (Orig)":"www.delnorte.k12.ca.us","DOC":54,"DOCType":"Unified School District","latitude":41.772734,"longitude":-124.20591,"modified":"8/27/2015","studentCount":3591,"lepCount":358,"iepCount":602,"frlCount":2375,"fetchCount":71,"twitter":"","facebook":"https://www.facebook.com/pages/Del-Norte-County-Unified-School-District/148445035186670","Verified":"Verified","Comment":"","website":"http://www.delnorte.k12.ca.us"},
{"cdsId":8743510000000,"ncesId":600093,"county":"Del Norte","name":"Del Norte County ROP","street":"301 West Washington Boulevard","city":"Crescent City","zip":95531,"state":"CA","Website (Orig)":"","DOC":98,"DOCType":"Regional Occupation Center/Program (ROC/P)","latitude":41.772734,"longitude":-124.20591,"modified":"11/18/2015","studentCount":"‡","lepCount":"–","iepCount":"–","frlCount":"‡","fetchCount":"#N/A","twitter":"","facebook":"","Verified":"Dup","Comment":"","website":"http://www.delnorte.k12.ca.us/"},
{"cdsId":9100900000000,"ncesId":691006,"county":"El Dorado","name":"El Dorado County Office of Education","street":"6767 Green Valley Road","city":"Placerville","zip":"95667-8984","state":"CA","Website (Orig)":"www.edcoe.org","DOC":0,"DOCType":"County Office of Education (COE)","latitude":38.72032,"longitude":-120.86639,"modified":"1/7/2016","studentCount":946,"lepCount":53,"iepCount":959,"frlCount":372,"fetchCount":62,"twitter":"https://twitter.com/ElDoradoCOE","facebook":"https://www.facebook.com/eldoradocoe","Verified":"Trust","Comment":"","website":"http://edcoe.org/"},
{"cdsId":9618380000000,"ncesId":606270,"county":"El Dorado","name":"Buckeye Union Elementary","street":"1665 Blackstone Parkway","city":"El Dorado Hills","zip":"95762-9570","state":"CA","Website (Orig)":"www.buckeyeusd.org","DOC":52,"DOCType":"Elementary School District","latitude":38.625877,"longitude":-121.04826,"modified":"6/23/2015","studentCount":5078,"lepCount":185,"iepCount":385,"frlCount":699,"fetchCount":63,"twitter":"","facebook":"https://www.facebook.com/Buckeye-Union-School-District-331465503585488/","Verified":"Manual","Comment":"","website":"http://www.buckeyeusd.org"},
{"cdsId":9618460000000,"ncesId":607170,"county":"El Dorado","name":"Camino Union Elementary","street":"3060 Snows Road","city":"Camino","zip":"95709-9578","state":"CA","Website (Orig)":"www.caminoschool.org","DOC":52,"DOCType":"Elementary School District","latitude":38.734611,"longitude":-120.67882,"modified":"6/23/2015","studentCount":544,"lepCount":95,"iepCount":24,"frlCount":253,"fetchCount":57,"twitter":"","facebook":"","Verified":"Yes","Comment":"","website":"http://www.caminoschool.org"},
{"cdsId":9618530000000,"ncesId":612070,"county":"El Dorado","name":"El Dorado Union High","street":"4675 Missouri Flat Road","city":"Placerville","zip":"95667-6816","state":"CA","Website (Orig)":"www.eduhsd.k12.ca.us","DOC":56,"DOCType":"High School District","latitude":38.694651,"longitude":-120.82379,"modified":"6/23/2015","studentCount":6836,"lepCount":54,"iepCount":646,"frlCount":1351,"fetchCount":74,"twitter":"","facebook":"http://www.facebook.com/eduhsdworkability","Verified":"Trust","Comment":"","website":"http://www.eduhsd.k12.ca.us"},
{"cdsId":9618790000000,"ncesId":615390,"county":"El Dorado","name":"Gold Oak Union Elementary","street":"3171 Pleasant Valley Road","city":"Placerville","zip":"95667-7836","state":"CA","Website (Orig)":"www.gousd.org","DOC":52,"DOCType":"Elementary School District","latitude":38.692386,"longitude":-120.71838,"modified":"12/18/2015","studentCount":463,"lepCount":7,"iepCount":23,"frlCount":190,"fetchCount":65,"twitter":"","facebook":"","Verified":"Yes","Comment":"","website":"http://www.gousd.org"},
{"cdsId":9618870000000,"ncesId":615450,"county":"El Dorado","name":"Gold Trail Union Elementary","street":"1575 Old Ranch Road","city":"Placerville","zip":"95667-8929","state":"CA","Website (Orig)":"www.gtusd.org","DOC":52,"DOCType":"Elementary School District","latitude":38.770686,"longitude":-120.92795,"modified":"6/23/2015","studentCount":601,"lepCount":11,"iepCount":40,"frlCount":160,"fetchCount":39,"twitter":"","facebook":"https://www.facebook.com/GTUSDPTO?fref=ts","Verified":"Trust","Comment":"","website":"http://www.gtusd.org"},
{"cdsId":9618950000000,"ncesId":618240,"county":"El Dorado","name":"Indian Diggings Elementary","street":"6020 Omo Ranch Road","city":"Somerset","zip":"95684-9209","state":"CA","Website (Orig)":"www.indiandiggingsschool.com","DOC":52,"DOCType":"Elementary School District","latitude":38.581663,"longitude":-120.57737,"modified":"10/9/2015","studentCount":18,"lepCount":0,"iepCount":0,"frlCount":4,"fetchCount":36,"twitter":"","facebook":"","Verified":"Yes","Comment":"","website":"http://www.indiandiggingsschool.com"},
{"cdsId":9619030000000,"ncesId":620640,"county":"El Dorado","name":"Lake Tahoe Unified","street":"1021 Al Tahoe Boulevard","city":"South Lake Tahoe","zip":"96150-4426","state":"CA","Website (Orig)":"www.ltusd.org","DOC":54,"DOCType":"Unified School District","latitude":38.934432,"longitude":-119.97607,"modified":"6/23/2015","studentCount":3855,"lepCount":1151,"iepCount":489,"frlCount":2329,"fetchCount":41,"twitter":"https://twitter.com/ltusdedu","facebook":"","Verified":"Trust","Comment":"","website":"http://www.ltusd.org"},
{"cdsId":9619110000000,"ncesId":621180,"county":"El Dorado","name":"Latrobe","street":"7900 South Shingle Road","city":"Shingle Springs","zip":"95682-8026","state":"CA","Website (Orig)":"www.latrobeschool.com","DOC":52,"DOCType":"Elementary School District","latitude":38.55537,"longitude":-120.99051,"modified":"7/24/2014","studentCount":130,"lepCount":1,"iepCount":8,"frlCount":3,"fetchCount":63,"twitter":"","facebook":"","Verified":"Yes","Comment":"","website":"http://www.latrobeschool.com"},
{"cdsId":9619290000000,"ncesId":625980,"county":"El Dorado","name":"Mother Lode Union Elementary","street":"3783 Forni Road","city":"Placerville","zip":"95667-6207","state":"CA","Website (Orig)":"www.mlusd.net","DOC":52,"DOCType":"Elementary School District","latitude":38.708332,"longitude":-120.83076,"modified":"6/23/2015","studentCount":1101,"lepCount":190,"iepCount":97,"frlCount":569,"fetchCount":62,"twitter":"","facebook":"","Verified":"Yes","Comment":"","website":"http://www.mlusd.net"},
{"cdsId":9619450000000,"ncesId":630480,"county":"El Dorado","name":"Pioneer Union Elementary","street":"6862 Mount Aukum Road","city":"Somerset","zip":"95684-0008","state":"CA","Website (Orig)":"http://pioneerusd.org","DOC":52,"DOCType":"Elementary School District","latitude":38.60527,"longitude":-120.71193,"modified":"12/18/2015","studentCount":327,"lepCount":13,"iepCount":50,"frlCount":195,"fetchCount":67,"twitter":"","facebook":"https://www.facebook.com/Pioneer-Union-School-District-361974717328628/","Verified":"Manual","Comment":"","website":"http://www.pioneerusd.org/"},
{"cdsId":9619520000000,"ncesId":630780,"county":"El Dorado","name":"Placerville Union Elementary","street":"1032 Thompson Way","city":"Placerville","zip":"95667-5713","state":"CA","Website (Orig)":"www.pusd.k12.ca.us","DOC":52,"DOCType":"Elementary School District","latitude":38.728522,"longitude":-120.79343,"modified":"6/23/2015","studentCount":1257,"lepCount":170,"iepCount":80,"frlCount":659,"fetchCount":70,"twitter":"","facebook":"","Verified":"Yes","Comment":"","website":"http://www.pusdk8.us/site/default.aspx?PageID=1"}